{"data":{"stations":[{"address":"ANGLE ALLEE ANDRE MURE ET QUAI ANTOINE RIBOUD","capacity":22,"lat":45.743317,"lon":4.815747,"name":"2010 - CONFLUENCE / DARSE","station_id":"2010"},{"address":"Devant le n°41 rue de la Quarantaine","capacity":19,"lat":45.75197,"lon":4.821662,"name":"5015 - FULCHIRON","station_id":"5015"},{"address":"","capacity":17,"lat":45.846034,"lon":4.832409,"name":"32001 - COUZON - CENTRE","station_id":"32001"},{"address":"Angle rue Vendôme","capacity":20,"lat":45.768896,"lon":4.844845,"name":"6004 - FOCH","station_id":"6004"},{"address":"Angle rue de Marseille","capacity":40,"lat":45.750945,"lon":4.83927,"name":"7035 - MARSEILLE / UNIVERSITÉ","station_id":"7035"},{"address":"41 AV. ROGER SALENGRO (VILLEURBANNE)","capacity":15,"lat":45.776239,"lon":4.871634,"name":"10120 - SALENGRO / DESCARTES","station_id":"10120"},{"address":"Devant la mairie du 5°","capacity":13,"lat":45.756204,"lon":4.802727,"name":"5016 - POINT DU JOUR / GRANGES","station_id":"5016"},{"address":"Angle rue de la Navigation","capacity":20,"lat":45.787522,"lon":4.814418,"name":"9013 - QUAI PAUL SÉDALLIAN","station_id":"9013"},{"address":"Cours de la République/Angle Anatole France","capacity":24,"lat":45.767467,"lon":4.874032,"name":"10028 - ECOLE DE MUSIQUE","station_id":"10028"},{"address":"50 QUAI ACHILLE LIGNON","capacity":22,"lat":45.78458,"lon":4.859664,"name":"6041 - CITÉ INTERNATIONALE / TÊTE D'OR NORD","station_id":"6041"},{"address":"Test Lyon au Labo Maurepas","capacity":5,"lat":45.780403,"lon":4.904954,"name":"BORNE DE TEST LYON (PLAISIR)","station_id":"201"},{"address":"174 COURS EMILE ZOLA","capacity":16,"lat":45.769226,"lon":4.880491,"name":"10011 - GRATTE-CIEL","station_id":"10011"},{"address":"","capacity":20,"lat":45.70597,"lon":4.900886,"name":"15002 - ST PRIEST - CITE BERLIET","station_id":"15002"},{"address":"Face Entrée du Parc de la Tête d'Or**","capacity":35,"lat":45.779702,"lon":4.860029,"name":"10005 - 11 NOVEMBRE","station_id":"10005"},{"address":"Angle montée de la Boucle","capacity":30,"lat":45.778767,"lon":4.841109,"name":"4012 - PLACE ADRIEN GODIEN","station_id":"4012"},{"address":"","capacity":15,"lat":45.79169,"lon":4.843452,"name":"11004 - CALUIRE - BRANLY / PASTEUR","station_id":"11004"},{"address":"","capacity":18,"lat":45.719399,"lon":4.854681,"name":"16002 - VÉNISSIEUX - LÉVY / VIENNE","station_id":"16002"},{"address":"133 COURS GAMBETTA","capacity":22,"lat":45.750251,"lon":4.857919,"name":"3009 - MUSEE AFRICAIN","station_id":"3009"},{"address":"17 RUE DE VERDUN (VILLEURBANNE)","capacity":21,"lat":45.784023,"lon":4.897102,"name":"10122 - VERDUN / DESGRAND","station_id":"10122"},{"address":"","capacity":20,"lat":45.725891,"lon":4.858428,"name":"16001 - VENISSIEUX - PLACE ROMAND","station_id":"16001"},{"address":"Angle Rue de la Guillotiere","capacity":13,"lat":45.749622,"lon":4.85299,"name":"7038 - PLACE STALINGRAD","station_id":"7038"},{"address":"28 RUE DU CHÂTEAU GAILLARD (VILLEURBANNE)","capacity":16,"lat":45.774754,"lon":4.887977,"name":"10091 - CHÂTEAU GAILLARD / FORT","station_id":"10091"},{"address":"","capacity":30,"lat":45.745824,"lon":4.817176,"name":"2021 - RAMBAUD / ECOLE DU CINÉMA","station_id":"2021"},{"address":"29 RUE CHAZIERE","capacity":20,"lat":45.775425,"lon":4.817888,"name":"4025 - CHAZIÈRE","station_id":"4025"},{"address":"49 AV. GENERAL LECLERC (VILLEURBANNE)","capacity":22,"lat":45.755768,"lon":4.891542,"name":"10113 - GARE DE VILLEURBANNE","station_id":"10113"},{"address":"Face au 45 quai Gillet","capacity":22,"lat":45.778175,"lon":4.810716,"name":"4023 - PONT MASARYK","station_id":"4023"},{"address":"139 AV. FELIX FAURE","capacity":19,"lat":45.754296,"lon":4.86359,"name":"3066 - KIMMERLING / FAURE","station_id":"3066"},{"address":"","capacity":20,"lat":45.770309,"lon":4.86196,"name":"10111 - CHARLES HERNU","station_id":"10111"},{"address":"7 PLACE BENOIT CREPU","capacity":20,"lat":45.757847,"lon":4.826103,"name":"5040 - PLACE CRÉPU","station_id":"5040"},{"address":"Avenue Jean Jaurès - Angle rue de la Guillotière","capacity":10,"lat":45.75251,"lon":4.846278,"name":"7008 - JEAN JAURÈS / GUILLOTIÈRE","station_id":"7008"},{"address":"6 RUE BANCEL","capacity":21,"lat":45.748504,"lon":4.840505,"name":"7024 - BANCEL / CHEVREUL","station_id":"7024"},{"address":"Entre rue Victor Hugo et rue d'Auvergne","capacity":18,"lat":45.7444746076792,"lon":4.82671963006449,"name":"2023 -  PERRACHE / PETIT","station_id":"2023"},{"address":"81 BVD DES Etats-Unis","capacity":20,"lat":45.732366,"lon":4.865101,"name":"8029 - ETATS-UNIS / LÉVIGNE","station_id":"8029"},{"address":"Angle rue Hénon","capacity":22,"lat":45.779786,"lon":4.827635,"name":"4004 - HÉNON","station_id":"4004"},{"address":"164 AV. PAUL SANTY","capacity":18,"lat":45.725403,"lon":4.881292,"name":"8061 - STADE VUILLERMET","station_id":"8061"},{"address":"16 BVD DE LA CROIX-ROUSSE","capacity":20,"lat":45.772229,"lon":4.819389,"name":"1023 - CROIX ROUSSE / PERFETTI","station_id":"1023"},{"address":"Cours Gambette - Prolongement rue Rachais","capacity":40,"lat":45.751827,"lon":4.8526,"name":"7003 - GAMBETTA / GARIBALDI","station_id":"7003"},{"address":"33 Boulevard Yves Farge 69007 Lyon","capacity":30,"lat":45.743163,"lon":4.834165,"name":"7030 - QUARTIER GENERAL FRERE","station_id":"7030"},{"address":"devant la résidence hôtelière à l'ouest de la place publique","capacity":28,"lat":45.784812,"lon":4.856432,"name":"6042 - CITÉ INTERNATIONALE / RÉSIDENCE HÔTELIÈRE","station_id":"6042"},{"address":"Côté nord de la place, vers l'ascenseur","capacity":22,"lat":45.759932,"lon":4.832111,"name":"2013 - CÉLESTINS","station_id":"2013"},{"address":"76 AV. LACASSAGNE","capacity":16,"lat":45.749563,"lon":4.875934,"name":"3086 - FEUILLAT / LACASSAGNE","station_id":"3086"},{"address":"12 RUE SANTOS DUMONT","capacity":17,"lat":45.744447,"lon":4.860889,"name":"8025 - DUMONT / JOUVET","station_id":"8025"},{"address":"5 rue Félix Rollet 69003 Lyon","capacity":20,"lat":45.748346,"lon":4.875955,"name":"3050 - FRICHE RVI","station_id":"3050"},{"address":"69 RUE AUDIBERT ET LAVIROTTE","capacity":18,"lat":45.73586,"lon":4.856888,"name":"8056 - DELORE / AUDIBERT ET LAVIROTTE","station_id":"8056"},{"address":"2 RUE DES ACACIAS VILLEURBANNE","capacity":12,"lat":45.780422,"lon":4.904505,"name":"10119 - VILLEURBANNE SAINT-JEAN","station_id":"10119"},{"address":"26 RUE DE LA THIBAUDIERE","capacity":28,"lat":45.750344,"lon":4.845048,"name":"7053 - JAURÈS / THIBAUDIÈRE","station_id":"7053"},{"address":"A côté de l'église","capacity":25,"lat":45.749565,"lon":4.887311,"name":"3012 - PLACE DU CHÂTEAU","station_id":"3012"},{"address":"Rue Denfert-Rochereau / Angle rue Jacquart","capacity":14,"lat":45.77591,"lon":4.825394,"name":"4009 - JACQUARD / DENFERT-ROCHEREAU","station_id":"4009"},{"address":"Rue Colin - Angle rue Alexis Perroncel","capacity":15,"lat":45.774581,"lon":4.87406,"name":"10089 - COLIN / PERRONCEL","station_id":"10089"},{"address":"Place de la Paix - En face de La Poste","capacity":20,"lat":45.768023,"lon":4.831733,"name":"1031 - PLACE DE LA PAIX","station_id":"1031"},{"address":"Rue Paul Bert","capacity":20,"lat":45.757112,"lon":4.853405,"name":"3037 - PAUL BERT / GARIBALDI","station_id":"3037"},{"address":"54 COURS ALBERT THOMAS","capacity":20,"lat":45.747251,"lon":4.865386,"name":"8035 - SANS SOUCI","station_id":"8035"},{"address":"64 RUE JEUNET","capacity":18,"lat":45.750497,"lon":4.788819,"name":"5045 - VALDO / RIVET","station_id":"5045"},{"address":"","capacity":20,"lat":45.771902,"lon":4.955721,"name":"13001 - DECINES - CENTRE","station_id":"13001"},{"address":"Face parvis du palais des congrès","capacity":21,"lat":45.785456,"lon":4.854085,"name":"6035 - CITÉ INTERNATIONALE","station_id":"6035"},{"address":"158 BVD DE LA CROIX-ROUSSE","capacity":17,"lat":45.774366,"lon":4.832716,"name":"1036 - AVEYRON","station_id":"1036"},{"address":"Pierre Corneille/cours Franklin Roosevelt","capacity":20,"lat":45.769383,"lon":4.842364,"name":"6022 - PLACE MARÉCHAL LYAUTEY","station_id":"6022"},{"address":"Angle rue Horand / rue Masset","capacity":12,"lat":45.773468,"lon":4.800286,"name":"9020 - BOURBONNAIS","station_id":"9020"},{"address":"","capacity":20,"lat":45.746163,"lon":4.82548,"name":"2027 - PERRACHE EST","station_id":"2027"},{"address":"Angle rue Tupin / rue Herriot","capacity":12,"lat":45.763065,"lon":4.83425,"name":"2016 - PLACE REGAUD","station_id":"2016"},{"address":"55 RUE DE LA VILLETTE","capacity":30,"lat":45.760042,"lon":4.861734,"name":"3080 - PART-DIEU / VILLETTE","station_id":"3080"},{"address":"Prox. Quai Pierre Scize","capacity":20,"lat":45.767057,"lon":4.827014,"name":"5029 - PLACE GERSON","station_id":"5029"},{"address":"16 PLACE CARNOT","capacity":18,"lat":45.750116,"lon":4.82801,"name":"2004 - PERRACHE / CARNOT","station_id":"2004"},{"address":"Rue Anatole France/Angle av Barbusse","capacity":20,"lat":45.768127,"lon":4.879096,"name":"10079 - ANATOLE FRANCE / BARBUSSE","station_id":"10079"},{"address":"","capacity":13,"lat":45.742932,"lon":4.90863,"name":"14001 - BRON - CENTRE NAUTIQUE","station_id":"14001"},{"address":"174–180 Avenue Jean Jaurès 69007 Lyon","capacity":16,"lat":45.737503,"lon":4.837484,"name":"7009 - JEAN JAURÈS","station_id":"7009"},{"address":"40 AV. LECLERC","capacity":25,"lat":45.737745,"lon":4.824495,"name":"7045 - PARC DES BERGES","station_id":"7045"},{"address":"55 RUE DE BARABAN","capacity":20,"lat":45.762055,"lon":4.868486,"name":"3101 - PATINOIRE BARABAN","station_id":"3101"},{"address":"Angle Bvd de la Croix-Rousse","capacity":10,"lat":45.774061,"lon":4.82516,"name":"4021 - TABAREAU","station_id":"4021"},{"address":"3 PLACE DANTON","capacity":18,"lat":45.7548502313005,"lon":4.85748756866509,"name":"3103 - PLACE DANTON","station_id":"3103"},{"address":"Angle cours Lafayette","capacity":13,"lat":45.763717,"lon":4.843791,"name":"6031 - LAFAYETTE / CORNEILLE","station_id":"6031"},{"address":"Rue Florian/Angle Cours Tolstoï","capacity":21,"lat":45.761801,"lon":4.880735,"name":"10018 - TOLSTOÏ / FLORIAN","station_id":"10018"},{"address":"23 RUE GORGE DE LOUP","capacity":16,"lat":45.770136,"lon":4.80516,"name":"9049 - SERGENT BERTHET / GORGE DE LOUP","station_id":"9049"},{"address":"","capacity":37,"lat":45.760912,"lon":4.845291,"name":"3017 - SAXE / DUNOIR","station_id":"3017"},{"address":"","capacity":15,"lat":45.801192,"lon":4.825451,"name":"9009 - BERLIOZ / CHALINEL","station_id":"9009"},{"address":"Angle cours Tolstoï","capacity":19,"lat":45.759743,"lon":4.889938,"name":"10021 - GRANDCLÉMENT","station_id":"10021"},{"address":"Route de Vienne - Angle avenue Berthelot","capacity":15,"lat":45.742639,"lon":4.850538,"name":"7023 - BERTHELOT / ROUTE DE VIENNE","station_id":"7023"},{"address":"23 RUE DE LA VIABERT","capacity":16,"lat":45.766372,"lon":4.865058,"name":"6044 - CHARMETTES / BELLECOMBE","station_id":"6044"},{"address":"105 COURS ALBERT THOMAS","capacity":18,"lat":45.745828,"lon":4.870631,"name":"3008 - INSTITUT LUMIERE","station_id":"3008"},{"address":"","capacity":35,"lat":45.753528,"lon":4.857784,"name":"3040 - FAURE / DANTON","station_id":"3040"},{"address":"73 RUE CAZENEUVE","capacity":22,"lat":45.731361,"lon":4.860139,"name":"8042 - FRANCIS DE PRESSENSÉ","station_id":"8042"},{"address":"20 AV. JOANNES MASSET","capacity":16,"lat":45.770508,"lon":4.800869,"name":"9044 - MASSET / SAINT-PIERRE DE VAISE","station_id":"9044"},{"address":"","capacity":20,"lat":45.832495,"lon":4.848795,"name":"28001 - FONTAINES S/S - QUAI SIMON","station_id":"28001"},{"address":"Angle cours André Philip","capacity":12,"lat":45.772277,"lon":4.865774,"name":"10075 - GABRIEL PÉRI","station_id":"10075"},{"address":"Angle rue Anselme, face à l'IUFM","capacity":23,"lat":45.773358,"lon":4.821234,"name":"4006 - PHILIPPE DE LASSALLE","station_id":"4006"},{"address":"","capacity":30,"lat":45.764062,"lon":4.865802,"name":"6017 - LAFAYETTE / INKERMANN","station_id":"6017"},{"address":"11 PLACE ANTONIN GOURJU","capacity":30,"lat":45.759494,"lon":4.830161,"name":"2036 - PLACE ANTONIN GOURJU","station_id":"2036"},{"address":"Le long des grilles, côté ouest de la porte","capacity":40,"lat":45.777521,"lon":4.844922,"name":"6002 - PORTE DES ENFANTS DU RHÔNE","station_id":"6002"},{"address":"Angle rue Vauban","capacity":20,"lat":45.764821,"lon":4.841567,"name":"6032 - PRÉFECTURE / SARRAIL","station_id":"6032"},{"address":"","capacity":20,"lat":45.74222,"lon":4.860219,"name":"8055 - SAINT-ROMAIN / BERLIET","station_id":"8055"},{"address":"Sur le quai haut","capacity":33,"lat":45.749431,"lon":4.834816,"name":"7033 - SAINT-LUC / SAINT-JOSEPH","station_id":"7033"},{"address":"10 PLACE DE LA PAIX (VILLEURBANNE)","capacity":17,"lat":45.752074,"lon":4.91466,"name":"10016 - PLACE DE LA PAIX","station_id":"10016"},{"address":"Rue Domer/angle rue Chevreul","capacity":12,"lat":45.746681,"lon":4.844455,"name":"7041 - DOMER / CHEVREUL","station_id":"7041"},{"address":"","capacity":20,"lat":45.741922,"lon":4.894068,"name":"3090 - VINATIER","station_id":"3090"},{"address":"Rue du Professeur Beauvisage","capacity":17,"lat":45.727881,"lon":4.86355,"name":"8008 - BEAUVISAGE / PRESSENSÉ","station_id":"8008"},{"address":"angle ave Rockfeller / cours Eugénie face au Bioparc","capacity":20,"lat":45.740492,"lon":4.888084,"name":"3071 - BIOPARC","station_id":"3071"},{"address":"Face ancien Palais de Justice","capacity":17,"lat":45.7620452080746,"lon":4.82872732991442,"name":"5006 - QUAI ROMAIN ROLLAND","station_id":"5006"},{"address":"64 AV. MARCEL CERDAN","capacity":28,"lat":45.765214,"lon":4.909808,"name":"10014 - LAURENT BONNEVAY / ASTROBALLE","station_id":"10014"},{"address":"Rue Salvador Allende / Angle promenade du Lys","capacity":10,"lat":45.776217,"lon":4.862636,"name":"10004 - TONKIN","station_id":"10004"},{"address":"Rue de la Martinière","capacity":11,"lat":45.768223,"lon":4.827533,"name":"1013 - MARTINIÈRE","station_id":"1013"},{"address":"","capacity":17,"lat":45.791621,"lon":4.808426,"name":"26001 - ST DIDIER","station_id":"26001"},{"address":"37 AV. SIDOINE APOLLINAIRE","capacity":19,"lat":45.771034,"lon":4.79644,"name":"9010 - PISCINE DE VAISE","station_id":"9010"},{"address":"Angle rue Tête d'Or","capacity":16,"lat":45.764345,"lon":4.853492,"name":"6028 - RÉCAMIER / TÊTE D'OR","station_id":"6028"},{"address":"Devant la MJC","capacity":18,"lat":45.761825,"lon":4.886156,"name":"10034 - DOCTEUR DAMIDOT","station_id":"10034"},{"address":"Face à la poste","capacity":19,"lat":45.758974,"lon":4.853599,"name":"3058 - PLACE DU LAC","station_id":"3058"},{"address":"44 BVD DES BROTTEAUX","capacity":15,"lat":45.766284,"lon":4.856848,"name":"6045 - BROTTEAUX / VAUBAN","station_id":"6045"},{"address":"2B RUE DR. ALBERIC PONT","capacity":16,"lat":45.753452,"lon":4.804401,"name":"5047 - ALBÉRIC PONT","station_id":"5047"},{"address":"6 RUE ANTOINE LUMIERE","capacity":16,"lat":45.743569,"lon":4.870083,"name":"8053 - LUMIERE / TROUILHET","station_id":"8053"},{"address":"3 QUAI PAUL SEDAILLAN","capacity":16,"lat":45.797415,"lon":4.829038,"name":"9008 - L'ILE BARBE","station_id":"9008"},{"address":"","capacity":24,"lat":45.790414,"lon":4.816359,"name":"9046 - MANGINI","station_id":"9046"},{"address":"94 RUE PHILIPPE DE LASALLE","capacity":16,"lat":45.781699,"lon":4.820596,"name":"4042 - GREGORY COUPET","station_id":"4042"},{"address":"Bd du 11 novembre angle av. Claude Bernard","capacity":30,"lat":45.77939,"lon":4.863068,"name":"10053 - ROSSELINI / 11 NOVEMBRE","station_id":"10053"},{"address":"","capacity":20,"lat":45.766708,"lon":4.852073,"name":"6039 - GARIBALDI / BUGEAUD","station_id":"6039"},{"address":"20 RUE VALENTIN HAUY (VILLEURBANNE)","capacity":24,"lat":45.75958,"lon":4.882739,"name":"10110 - MÉMOIRE ET SOCIÉTÉ","station_id":"10110"},{"address":"Entre rue Crillon et rue Sully","capacity":11,"lat":45.770664,"lon":4.849946,"name":"6021 - GARIBALDI","station_id":"6021"},{"address":"1 PLACE DE L'ABBE LARUE","capacity":18,"lat":45.75597,"lon":4.818904,"name":"5053 - SAINT-JUST","station_id":"5053"},{"address":"10 RUE PDT P. KRUGER","capacity":16,"lat":45.738671,"lon":4.878117,"name":"8058 - LONGEFER / KRUGER","station_id":"8058"},{"address":"12 COURS CHARLEMAGNE","capacity":40,"lat":45.747956,"lon":4.824898,"name":"2037 - PLACE DES ARCHIVES","station_id":"2037"},{"address":"","capacity":23,"lat":45.73403,"lon":4.908777,"name":"14004 - BRON - MAIRIE","station_id":"14004"},{"address":"Angle rue de la République","capacity":28,"lat":45.759379,"lon":4.835414,"name":"2026 - RÉPUBLIQUE / PAUFIQUE","station_id":"2026"},{"address":"","capacity":15,"lat":45.749588,"lon":4.800967,"name":"22001 - STE FOY - PLACE ST LUC","station_id":"22001"},{"address":"Rue Roquette / angle rue de Bourgogne","capacity":16,"lat":45.775679,"lon":4.805314,"name":"9003 - PLACE VALMY","station_id":"9003"},{"address":"16 RUE DES REMPARTS D'AINAY","capacity":24,"lat":45.753077,"lon":4.829706,"name":"2038 - REMPARTS D'AINAY","station_id":"2038"},{"address":"34 RUE ANTOINE LUMIERE","capacity":20,"lat":45.740865,"lon":4.868244,"name":"8054 - MARTINIÈRE / MONPLAISIR","station_id":"8054"},{"address":"Angle rue de la Madeleine","capacity":10,"lat":45.751073,"lon":4.848018,"name":"7039 - GUILLOTIÈRE / MADELEINE","station_id":"7039"},{"address":"3 PLACE GAILLETON","capacity":16,"lat":45.753455,"lon":4.833367,"name":"2012 - GAILLETON","station_id":"2012"},{"address":"Avenue Jean Jaurès - Au niveau du square Galtier","capacity":40,"lat":45.727494,"lon":4.831145,"name":"7006 - GERLAND","station_id":"7006"},{"address":"","capacity":23,"lat":45.730788,"lon":4.887513,"name":"8023 - MERMOZ / PINEL","station_id":"8023"},{"address":"Côté route de Vienne","capacity":14,"lat":45.735653,"lon":4.853042,"name":"8011 - PLACE LEBRET","station_id":"8011"},{"address":"12 QUAI ST VINCENT","capacity":22,"lat":45.767912,"lon":4.819872,"name":"1006- SUBSISTANCES","station_id":"1006"},{"address":"Devant la mairie du 4°","capacity":20,"lat":45.774193,"lon":4.827743,"name":"4002 - MAIRIE DU 4E","station_id":"4002"},{"address":"","capacity":24,"lat":45.720156,"lon":4.798426,"name":"20003 - OULLINS - PONT BLANC","station_id":"20003"},{"address":"44 RUE MAURICE FLANDIN 69003 LYON","capacity":28,"lat":45.760689,"lon":4.863069,"name":"3081 - PART-DIEU / FRANCFORT","station_id":"3081"},{"address":"Côté Rue Philippe de Lassalle","capacity":18,"lat":45.779332,"lon":4.820259,"name":"4007 - PLACE FLAMMARION","station_id":"4007"},{"address":"","capacity":18,"lat":45.815973,"lon":4.887019,"name":"30002 - RILLIEUX - LOUP PENDU","station_id":"30002"},{"address":"","capacity":59,"lat":45.75991,"lon":4.857555,"name":"3011 - PART-DIEU / CUIRASSIERS","station_id":"3011"},{"address":"3 RUE DU CHAMP DE L'ORME (VILLEURBANNE)","capacity":17,"lat":45.771561,"lon":4.890378,"name":"10092 - MONTGOLFIER / CHATEAU GAILLARD","station_id":"10092"},{"address":"Place des Maisons Neuves/Côté rue Jean Jaurès","capacity":23,"lat":45.755988,"lon":4.877409,"name":"10024 - MAISONS NEUVES","station_id":"10024"},{"address":"30 MONTEE DES CARMELITES","capacity":16,"lat":45.770006,"lon":4.829274,"name":"1034 - CARMÉLITES","station_id":"1034"},{"address":"Place Antoinette","capacity":21,"lat":45.753683,"lon":4.889285,"name":"3013 - PLACE ANTOINETTE","station_id":"3013"},{"address":"Rue Roger Salengro - Angle rue Vaillant","capacity":24,"lat":45.778385,"lon":4.879673,"name":"10008 - SALENGRO / VAILLANT","station_id":"10008"},{"address":"118 RUE MONCEY","capacity":18,"lat":45.761595,"lon":4.850477,"name":"3083 - LES HALLES","station_id":"3083"},{"address":"Angle bvd Anatole France","capacity":10,"lat":45.770743,"lon":4.856713,"name":"6024 - TRONCHET / ANATOLE FRANCE","station_id":"6024"},{"address":"Rue Professeur Beauvisage/Angle bd des Etats-Unis","capacity":20,"lat":45.729771,"lon":4.868157,"name":"8006 - PLACE DU 8 MAI 1945","station_id":"8006"},{"address":"","capacity":12,"lat":45.763244,"lon":4.778641,"name":"23001 - TASSIN - TUILERIES","station_id":"23001"},{"address":"360 BVD DE BALMONT","capacity":12,"lat":45.789194,"lon":4.799308,"name":"9052 - BALMONT","station_id":"9052"},{"address":"Face au 2 rue de la Poudrette, Vaulx en Velin","capacity":20,"lat":45.76438,"lon":4.919276,"name":"12002 - VAULX - POUDRETTE / LA SOIE","station_id":"12002"},{"address":"153 RUE CREQUI","capacity":15,"lat":45.763755,"lon":4.847082,"name":"6033 - CRÉQUI / LAFAYETTE","station_id":"6033"},{"address":"Rue de France/Angle Cours Emile Zola","capacity":16,"lat":45.767957,"lon":4.887232,"name":"10012 - ZOLA / FRANCE","station_id":"10012"},{"address":"","capacity":24,"lat":45.77696,"lon":4.876552,"name":"10124 - SALENGRO / YVONNE","station_id":"10124"},{"address":"","capacity":12,"lat":45.776646,"lon":4.902366,"name":"10123 - SAINT JEAN CANAL","station_id":"10123"},{"address":"Prox. Grande rue de la Croix-Rousse","capacity":21,"lat":45.77608,"lon":4.832543,"name":"4022 - PLACE DE LA CROIX-ROUSSE","station_id":"4022"},{"address":"Avenue du Cdt Lherminier/Angle rue F. de Pressensé","capacity":15,"lat":45.771143,"lon":4.88504,"name":"10047 - LHERMINIER / PRESSENSÉ","station_id":"10047"},{"address":"176–180 Rue de Gerland 69007 Lyon","capacity":12,"lat":45.729791,"lon":4.838138,"name":"7021 - CHALLEMEL LACOUR / GERLAND","station_id":"7021"},{"address":"Angle rue Moncey / Part-Dieu","capacity":27,"lat":45.759648,"lon":4.848139,"name":"3004 - BOURSE DU TRAVAIL","station_id":"3004"},{"address":"Angle rue de la Part-Dieu","capacity":18,"lat":45.759361,"lon":4.842308,"name":"3016 - LIBERTÉ / PART-DIEU","station_id":"3016"},{"address":"Angle Henry IV","capacity":10,"lat":45.753049,"lon":4.828297,"name":"2003 - PLACE AMPÈRE","station_id":"2003"},{"address":"","capacity":20,"lat":45.73674,"lon":4.834106,"name":"7017 - BEAUVOIR / MAROT","station_id":"7017"},{"address":"","capacity":12,"lat":45.697863,"lon":4.794658,"name":"19001 - ST GENIS L. - MÉDIATHÈQUE","station_id":"19001"},{"address":"Devant l'entrée du parc","capacity":20,"lat":45.772846,"lon":4.856274,"name":"6003 - AVENUE VERGUIN","station_id":"6003"},{"address":"Rue professeur Jean Bernard angle Boulevard Chambaud de la Bruyère Lyon 7","capacity":12,"lat":45.7228,"lon":4.842706,"name":"7015 - TECHSUD","station_id":"7015"},{"address":"Angle av Michelet","capacity":12,"lat":45.733317,"lon":4.878607,"name":"8024 - MERMOZ / MICHELET","station_id":"8024"},{"address":"","capacity":20,"lat":45.727691,"lon":4.837392,"name":"7026 - BALDASSINI / GERLAND","station_id":"7026"},{"address":"","capacity":12,"lat":45.775112,"lon":4.778531,"name":"24001 - ECULLY - MAIRIE","station_id":"24001"},{"address":"Angle Bld Y. Farge / rue Commandant Ayasse","capacity":20,"lat":45.735741,"lon":4.827725,"name":"7007 - FARGE / AYASSE","station_id":"7007"},{"address":"Angle rue Villon","capacity":20,"lat":45.746691,"lon":4.867501,"name":"8038 - ALBERT THOMAS / VILLON","station_id":"8038"},{"address":"Rue Jacques Brel/angle rue Korel","capacity":23,"lat":45.774228,"lon":4.864269,"name":"10072 - JACQUES BREL","station_id":"10072"},{"address":"","capacity":15,"lat":45.703245,"lon":4.821204,"name":"18001 - PIERRE BÉNITE - EUROPE","station_id":"18001"},{"address":"Angle rue Morellet","capacity":15,"lat":45.774526,"lon":4.848443,"name":"6020 - MUSÉE GUIMET","station_id":"6020"},{"address":"45 RUE DE LA POUDRETTE (VILLEURBANNE)","capacity":25,"lat":45.760908,"lon":4.920569,"name":"12001 - VAULX - LA SOIE","station_id":"12001"},{"address":"Avenue Galline/angle av. de Condorcet","capacity":15,"lat":45.776428,"lon":4.866976,"name":"10055 - CONDORCET / GALLINE","station_id":"10055"},{"address":"","capacity":30,"lat":45.773232,"lon":4.841949,"name":"6025 - PLACE D'HELVÉTIE","station_id":"6025"},{"address":"74 RUE DE LA VILLETTE","capacity":38,"lat":45.757808,"lon":4.861512,"name":"3094 - VILLETTE","station_id":"3094"},{"address":"87 RUE DOCTEUR EDMOND LOCARD","capacity":15,"lat":45.760056,"lon":4.798366,"name":"5044 - CHAMPVERT","station_id":"5044"},{"address":"","capacity":30,"lat":45.750002,"lon":4.864587,"name":"3069 - DAUPHINÉ / SAINT-MAXIMIN","station_id":"3069"},{"address":"Quai Chauveau / angle Pont Koenig","capacity":19,"lat":45.769803,"lon":4.812681,"name":"9011 - CONSERVATOIRE","station_id":"9011"},{"address":"Place Charles Hernu / côté sud","capacity":46,"lat":45.770225,"lon":4.863102,"name":"10006 - CHARPENNES","station_id":"10006"},{"address":"","capacity":24,"lat":45.727309,"lon":4.814779,"name":"21001 - LA MULATIERE - AQUARIUM","station_id":"21001"},{"address":"","capacity":30,"lat":45.782855,"lon":4.807288,"name":"9015 - SAINT-CYR","station_id":"9015"},{"address":"Angle rue Vendôme","capacity":10,"lat":45.771794,"lon":4.84459,"name":"6012 - PLACE PUVIS DE CHAVANNES","station_id":"6012"},{"address":"Boulevard Jean XXIII - Angle de la rue Mermoz","capacity":20,"lat":45.73648,"lon":4.869789,"name":"8009 - JEAN XXIII / MERMOZ","station_id":"8009"},{"address":"AVENUE FELIX FAURE ANGLE VIVIER MERLE. 10M AVANT VIVIER MERLE EN DIRECTION DU RHONE","capacity":35,"lat":45.75381,"lon":4.859795,"name":"3036 - FELIX FAURE / VIVIER MERLE","station_id":"3036"},{"address":"Rue Docteur Dolard / Angle rue 4 Septembre","capacity":25,"lat":45.761468,"lon":4.872466,"name":"10073 - INSTITUT D'ART CONTEMPORAIN","station_id":"10073"},{"address":"","capacity":23,"lat":45.759842,"lon":4.835776,"name":"2035 - CHILDEBERT / RIVIÈRE","station_id":"2035"},{"address":"Angle rue Emile Duport","capacity":30,"lat":45.7820006188352,"lon":4.81043960203213,"name":"9014 - QUAI DU COMMERCE","station_id":"9014"},{"address":"28 QUAI VICTOR AUGAGNEUR","capacity":40,"lat":45.757192,"lon":4.840495,"name":"3097 - AUGAGNEUR / FOSSE AUX OURS","station_id":"3097"},{"address":"","capacity":24,"lat":45.752453,"lon":4.858785,"name":"3035 - PHILOMENE MAGNIN","station_id":"3035"},{"address":"Angle rue Chinard/rue St Cyr","capacity":13,"lat":45.778639,"lon":4.8071,"name":"9022 - MASARYK / SAINT-CYR","station_id":"9022"},{"address":"Devant l'hôtel IBIS","capacity":19,"lat":45.757484,"lon":4.858386,"name":"3138 - VIVIER MERLE / PAUL BERT OUEST","station_id":"3138"},{"address":"105 ROUTE DE GENAS (VILLEURBANNE)","capacity":32,"lat":45.754415,"lon":4.885249,"name":"10112 - PLACE DE LA RECONNAISSANCE","station_id":"10112"},{"address":"FACE AU 81 QUAI JOSEPH GILLET","capacity":25,"lat":45.788204,"lon":4.818572,"name":"4024 - LYON METROPOLE","station_id":"4024"},{"address":"","capacity":20,"lat":45.714426,"lon":4.930975,"name":"15001 - ST PRIEST - PARC TECHNOLOGIQUE","station_id":"15001"},{"address":"170 Boulevard des Etats-Unis, Angle Avenue Viviani, direction Venissieux","capacity":20,"lat":45.724775,"lon":4.870745,"name":"8041 - ETATS-UNIS / VIVIANI","station_id":"8041"},{"address":"Côté rue des Marroniers","capacity":40,"lat":45.756775,"lon":4.833917,"name":"2008 - PLACE ANTONIN PONCET","station_id":"2008"},{"address":"","capacity":32,"lat":45.736722,"lon":4.841079,"name":"7019 - CROIX BARRET / BOURDEIX","station_id":"7019"},{"address":"Borne solaire n°1\nPosition OL \n45,76841104451926\n4,9814025855923365","capacity":3,"lat":45.7684110445193,"lon":4.98140258559234,"name":"00001 - BORNE SOLAIRE","station_id":"1"},{"address":"Place Meissonier - Angle Sud-Est de la place","capacity":16,"lat":45.766073,"lon":4.832849,"name":"1005 - MEISSONNIER","station_id":"1005"},{"address":"71 COURS LAFAYETTE","capacity":15,"lat":45.764013,"lon":4.849933,"name":"6040 - LES HALLES","station_id":"6040"},{"address":"","capacity":25,"lat":45.7809037283842,"lon":4.88958755288143,"name":"10044 - ROCARD OCTAVIE","station_id":"10044"},{"address":"Angle rue Plessier","capacity":30,"lat":45.751233,"lon":4.82688,"name":"2022 - PLACE CARNOT","station_id":"2022"},{"address":"Angle rue Pillement","capacity":13,"lat":45.777431,"lon":4.820526,"name":"4014 - PHILIPPE DE LASSALLE / PILLEMENT","station_id":"4014"},{"address":"","capacity":25,"lat":45.751902,"lon":4.843812,"name":"7036 - GRYPHE / MONTESQUIEU","station_id":"7036"},{"address":"Place Vanderpol/Angle St Pierre de Vaise","capacity":15,"lat":45.773125,"lon":4.807831,"name":"9029 - SAINT PIERRE DE VAISE","station_id":"9029"},{"address":"10 PLACE SAINTE ANNE","capacity":18,"lat":45.757042,"lon":4.86532,"name":"3099 - PLACE SAINTE ANNE","station_id":"3099"},{"address":"Devant entrée principale de l'université","capacity":36,"lat":45.748535,"lon":4.861533,"name":"8001 - UNIVERSITÉ LYON III","station_id":"8001"},{"address":"Place Victor Basch","capacity":26,"lat":45.75377,"lon":4.848043,"name":"3005 - SAXE / GAMBETTA","station_id":"3005"},{"address":"ANGLE RUE BILLON / RUE F. DE PRESSENSE","capacity":16,"lat":45.771912,"lon":4.87907,"name":"10121 - PARC DU CENTRE","station_id":"10121"},{"address":"","capacity":5,"lat":45.780403,"lon":4.904869,"name":"0-555 - ATELIER VÉLO'V","station_id":"555"},{"address":"","capacity":20,"lat":45.737481,"lon":4.865503,"name":"8033 - BERTHELOT / CAZENEUVE","station_id":"8033"},{"address":"274 COURS EMILE ZOLA (VILLEURBANNE)","capacity":22,"lat":45.767051,"lon":4.892467,"name":"10058 - MÉTRO FLACHET","station_id":"10058"},{"address":"95 AV. DE L'EUROPE","capacity":20,"lat":45.740052,"lon":4.85941,"name":"8010 - PLACE MENDÈS FRANCE","station_id":"8010"},{"address":"6 RUE JEAN RENOIR","capacity":15,"lat":45.752907,"lon":4.863923,"name":"3067 - HACHETTE","station_id":"3067"},{"address":"23 RUE RENAN","capacity":16,"lat":45.746779,"lon":4.842051,"name":"7055 - SERVANT / JABOULAY","station_id":"7055"},{"address":"","capacity":11,"lat":45.708561,"lon":4.854821,"name":"17002 - ST FONS - 4 CHEMINS","station_id":"17002"},{"address":"Angle rue des Aqueducs","capacity":18,"lat":45.756535,"lon":4.796616,"name":"5002 - PLACE DES COMPAGNONS DE LA CHANSON","station_id":"5002"},{"address":"84 avenue des Arts","capacity":30,"lat":45.783533,"lon":4.871294,"name":"10084 - DOUA / AVENUE DES ARTS","station_id":"10084"},{"address":"39 rue des Docks Lyon 9","capacity":19,"lat":45.786533,"lon":4.811446,"name":"9042 - VAISE DOCKS","station_id":"9042"},{"address":"93–131 Avenue Tony Garnier 69007 Lyon","capacity":20,"lat":45.730786,"lon":4.823733,"name":"7013 - HALLE TONY GARNIER","station_id":"7013"},{"address":"","capacity":25,"lat":45.736633,"lon":4.917009,"name":"14003 - BRON - PLACE CURIAL","station_id":"14003"},{"address":"Quai Gillet au  niveau de la place de la Rochette. Caluire et Cuire.","capacity":20,"lat":45.791748,"lon":4.823595,"name":"11003 - CALUIRE - LA ROCHETTE","station_id":"11003"},{"address":"Au niveau de la rue Duvivier","capacity":19,"lat":45.752553,"lon":4.855756,"name":"3039 - PLACE BIR-HAKEIM","station_id":"3039"},{"address":"","capacity":25,"lat":45.757646,"lon":4.883377,"name":"10023 - JAURES SAINT EXUPERY","station_id":"10023"},{"address":"12 QUAI ST AINTOINE","capacity":23,"lat":45.7633761875017,"lon":4.83212534541183,"name":"2040 - ST ANTOINE / GRENETTE","station_id":"2040"},{"address":"Angle cours Gambetta","capacity":13,"lat":45.751123,"lon":4.855604,"name":"3053 - GAMBETTA / JUSSERAND","station_id":"3053"},{"address":"","capacity":18,"lat":45.714039,"lon":4.806642,"name":"20002 - OULLINS - MAIRIE","station_id":"20002"},{"address":"Entre Herriot et République","capacity":25,"lat":45.758733,"lon":4.834136,"name":"2024 - RÉPUBLIQUE / MAUPIN","station_id":"2024"},{"address":"3 QUAI ANDRE LASSAGNE","capacity":16,"lat":45.772191,"lon":4.837917,"name":"1035 - QUAI LASSAGNE","station_id":"1035"},{"address":"3 RUE JEAN DE TOURNES","capacity":26,"lat":45.760762,"lon":4.834305,"name":"2014 - JACOBINS","station_id":"2014"},{"address":"Allée A. Lignon","capacity":27,"lat":45.782287,"lon":4.849378,"name":"6037 - CITÉ INTERNATIONALE / INTERPOL","station_id":"6037"},{"address":"2 RUE DES BIENVENUS","capacity":15,"lat":45.777873,"lon":4.884238,"name":"10083 - CHATEAU GAILLARD / BIENVENUS","station_id":"10083"},{"address":"Rue de la République","capacity":25,"lat":45.762184,"lon":4.836023,"name":"2017 - RÉPUBLIQUE / FERRANDIÈRE","station_id":"2017"},{"address":"184 ROUTE DE VIENNE","capacity":20,"lat":45.732483,"lon":4.853406,"name":"8057 - VIENNE / MONTAGNY","station_id":"8057"},{"address":"Angle rue Docteur Long/av. Lacassagne","capacity":13,"lat":45.748193,"lon":4.880641,"name":"3051 - PLACE HENRI","station_id":"3051"},{"address":"Rue Felissent, angle rue de Marseille","capacity":30,"lat":45.752989,"lon":4.841417,"name":"7014 - MARSEILLE / FÉLISSENT","station_id":"7014"},{"address":"Angle rue Villon","capacity":15,"lat":45.745018,"lon":4.866424,"name":"8007 - FRÈRES LUMIÈRE","station_id":"8007"},{"address":"Rue Tissot / angle rue de Bourgogne","capacity":16,"lat":45.777287,"lon":4.803297,"name":"9006 - THÉÂTRE NOUVELLE GÉNÉRATION","station_id":"9006"},{"address":"Rue Antoine Primat/Angle rue Decorps","capacity":13,"lat":45.757173,"lon":4.89998,"name":"10032 - PRIMAT / DECORPS","station_id":"10032"},{"address":"Place Général André - Face au 126 avenue Paul Santy","capacity":16,"lat":45.728542,"lon":4.877279,"name":"8021 - PAUL SANTY","station_id":"8021"},{"address":"Angle République / rue de la Barre","capacity":18,"lat":45.758,"lon":4.834594,"name":"2001 - BELLECOUR / RÉPUBLIQUE","station_id":"2001"},{"address":"Face station tram Ste Blandine","capacity":16,"lat":45.744438,"lon":4.822152,"name":"2028 - SAINTE-BLANDINE","station_id":"2028"},{"address":"Angle cours Charlemagne","capacity":24,"lat":45.745528,"lon":4.82359,"name":"2006 - PLACE DE L'HIPPODROME","station_id":"2006"},{"address":"Intersection Ferrandière/Jasseron","capacity":20,"lat":45.759488,"lon":4.869346,"name":"3021 - PLACE DE LA FERRANDIÈRE","station_id":"3021"},{"address":"173 BVD PINEL (BRON)","capacity":15,"lat":45.735375,"lon":4.88954,"name":"8059 - LAENNEC / PINEL","station_id":"8059"},{"address":"6 PLACE SATHONAY","capacity":15,"lat":45.769289,"lon":4.830127,"name":"1003 - PLACE SATHONAY","station_id":"1003"},{"address":"Sur l'esplanade entre la rue Hrant Dink et le 40 quai Rambaud","capacity":26,"lat":45.739652,"lon":4.814984,"name":"2009 - CONFLUENCE / DOCKS","station_id":"2009"},{"address":"Face à la faculté catholique","capacity":14,"lat":45.756813,"lon":4.828342,"name":"2011 - SALA / RUE DU PLAT","station_id":"2011"},{"address":"Angle rue d'Algérie","capacity":16,"lat":45.767736,"lon":4.832114,"name":"1001 - TERREAUX / TERME","station_id":"1001"},{"address":"Rue de la Platière - Angle quai de la Pêcherie","capacity":17,"lat":45.765944,"lon":4.831089,"name":"1016 - PÊCHERIE","station_id":"1016"},{"address":"4 PLACE RASPAIL","capacity":22,"lat":45.755783,"lon":4.840745,"name":"7056 - PLACE RASPAIL","station_id":"7056"},{"address":"103 ave des Arts / rue des Sports","capacity":30,"lat":45.784526,"lon":4.877482,"name":"10103 - DOUA / RUE DES SPORTS","station_id":"10103"},{"address":"96 RUE ALEXIS PERRONCEL (VILLEURBANNE)","capacity":17,"lat":45.775409,"lon":4.880261,"name":"10080 - VAILLANT / PERRONCEL","station_id":"10080"},{"address":"","capacity":12,"lat":45.756757,"lon":4.783206,"name":"5032 - MÉNIVAL / EISENHOWER","station_id":"5032"},{"address":"","capacity":30,"lat":45.747835,"lon":4.872261,"name":"3070 - REBATEL / SAINT-MAXIMIN","station_id":"3070"},{"address":"Cours E. Zola / Angle passage Rey","capacity":19,"lat":45.770099,"lon":4.876728,"name":"10074 - ZOLA / PASSAGE REY","station_id":"10074"},{"address":"221 AV. LACASSAGNE","capacity":24,"lat":45.745304,"lon":4.888964,"name":"3089 - TRARIEUX / LACASSAGNE","station_id":"3089"},{"address":"RUE MARYSE BASTIE","capacity":16,"lat":45.740324,"lon":4.874192,"name":"8015 - JEAN XXIII","station_id":"8015"},{"address":"101 AV. BARTHELEMY BUYER","capacity":22,"lat":45.762013,"lon":4.802751,"name":"5055 - BUYER / APOLLINAIRE","station_id":"5055"},{"address":"52 AV. MARC SANGNIER (VILLEURBANNE)","capacity":27,"lat":45.759176,"lon":4.875958,"name":"10048 - PLACE MARENGO","station_id":"10048"},{"address":"173 AV. PAUL KRUGER (VILLEURBANNE)","capacity":22,"lat":45.754181,"lon":4.90528,"name":"10115 - PLACE D'ESPAGNE / STADE KRUGER","station_id":"10115"},{"address":"7 PLACE JULES GRANDCLEMENT (VILLEURBANNE)","capacity":34,"lat":45.758399,"lon":4.885601,"name":"10063 - PERRIN / JEAN JAURÈS","station_id":"10063"},{"address":"","capacity":20,"lat":45.766921,"lon":4.870087,"name":"10045 - ALSACE ANATOLE FRANCE","station_id":"10045"},{"address":"66 RUE ANTOINE CHARIAL","capacity":16,"lat":45.757864,"lon":4.868337,"name":"3085 - SACRE COEUR","station_id":"3085"},{"address":"Intersection Rockefeller / Esquirol","capacity":19,"lat":45.741336,"lon":4.885538,"name":"3024 - ROCKEFELLER / ESQUIROL","station_id":"3024"},{"address":"44 RUE SALA","capacity":21,"lat":45.754468,"lon":4.833041,"name":"2041 - SALA / CHARITÉ","station_id":"2041"},{"address":"Angle Rue de Préssensé / Flachet","capacity":10,"lat":45.769837,"lon":4.889629,"name":"10086 - ANATOLE FRANCE","station_id":"10086"},{"address":"Rue Garibaldi - Angle avenue Berthelot","capacity":15,"lat":45.743756,"lon":4.847406,"name":"7011 - BERTHELOT / GARIBALDI","station_id":"7011"},{"address":"166 RUE DU QUATRE AOUT (VILLEURBANNE)","capacity":22,"lat":45.764567,"lon":4.892349,"name":"10117 - LA PERRALIÈRE","station_id":"10117"},{"address":"10 QUAI PAUL SEDAILLAN","capacity":18,"lat":45.792478,"lon":4.820567,"name":"9041 - CARRET / SÉDALLIAN","station_id":"9041"},{"address":"","capacity":20,"lat":45.776087,"lon":4.799725,"name":"9043 - MARIETTON OUEST","station_id":"9043"},{"address":"54 BVD PINEL","capacity":20,"lat":45.748286,"lon":4.896975,"name":"3091 - HOPITAL NEUROLOGIQUE","station_id":"3091"},{"address":"PLACE ROUVILLE","capacity":17,"lat":45.769684,"lon":4.824607,"name":"1024 - ROUVILLE","station_id":"1024"},{"address":"43 RUE PIERRE BARATIN (VILLEURBANNE)","capacity":16,"lat":45.763139,"lon":4.900492,"name":"10035 - BOIRON GRANGER","station_id":"10035"},{"address":"Près de la gare de St Paul","capacity":23,"lat":45.766278,"lon":4.827425,"name":"5005 - SAINT-PAUL","station_id":"5005"},{"address":"","capacity":1,"lat":0.0,"lon":0.0,"name":"00002 - CARGO SOLAIRE","station_id":"2"},{"address":"17 RUE D'AUSTERLITZ","capacity":18,"lat":45.775435,"lon":4.83512,"name":"4041 - BOUSSANGES / AUSTERLITZ","station_id":"4041"},{"address":"80 QUAI CHARLES DE GAULLE","capacity":32,"lat":45.784698,"lon":4.851896,"name":"6043 - CITÉ INTERNATIONALE / CINÉMA","station_id":"6043"},{"address":"","capacity":30,"lat":45.747933,"lon":4.856358,"name":"7051 - GUILLOTIERE / NICOLAÏ","station_id":"7051"},{"address":"65 RUE MAZENOD","capacity":16,"lat":45.75882,"lon":4.846453,"name":"3088 - PLACE GUICHARD","station_id":"3088"},{"address":"Rue Anatole France","capacity":13,"lat":45.76884,"lon":4.884276,"name":"10059 - ANATOLE FRANCE / ZOLA","station_id":"10059"},{"address":"Face au 54 Boulevard Ambroise Paré","capacity":24,"lat":45.736289,"lon":4.883667,"name":"8040 - AMBROISE PARÉ","station_id":"8040"},{"address":"1 PLACE DE LA RHODIACETA","capacity":12,"lat":45.770991,"lon":4.807578,"name":"9040 - PLACE RHODIACETA","station_id":"9040"},{"address":"Angle avenue Thiers","capacity":16,"lat":45.766032,"lon":4.862063,"name":"6016 - VIABERT / THIERS","station_id":"6016"},{"address":"17 PLACE JULES FERRY","capacity":20,"lat":45.7684,"lon":4.858972,"name":"6008 - PLACE JULES FERRY","station_id":"6008"},{"address":"","capacity":20,"lat":45.736216,"lon":4.815348,"name":"2019 - SUCRIERE","station_id":"2019"},{"address":"Entre la cathédrale et le funiculaire","capacity":39,"lat":45.760468,"lon":4.826548,"name":"5004 - SAINT-JEAN","station_id":"5004"},{"address":"126 RUE DU 8 MAI 1945 (VILLEURBANNE)","capacity":18,"lat":45.773845,"lon":4.893851,"name":"10030 - GREUZE","station_id":"10030"},{"address":"99 RUE PIERRE VOYANT (VILLEURBANNE)","capacity":22,"lat":45.767194,"lon":4.900597,"name":"10118 - VOYANT / CHAMBFORT","station_id":"10118"},{"address":"","capacity":17,"lat":45.731708,"lon":4.874205,"name":"8060 - SANTY / BEAUVISAGE","station_id":"8060"},{"address":"Place Tolozan - Angle nord-est de la place","capacity":36,"lat":45.769508,"lon":4.837495,"name":"1022 - PLACE TOLOZAN","station_id":"1022"},{"address":"Angle rue Servient","capacity":13,"lat":45.759906,"lon":4.844511,"name":"3031 - CORNEILLE / SERVIENT","station_id":"3031"},{"address":"rue de la Technologie","capacity":30,"lat":45.785632,"lon":4.882366,"name":"10001 - IUT / FEYSSINE","station_id":"10001"},{"address":"Avenue Lacassagne","capacity":16,"lat":45.753975,"lon":4.867336,"name":"3043 - PLACE ROUGET DE L'ISLE","station_id":"3043"},{"address":"Place Jules Ferry angle rue Général Brosset face à la gare des Brotteaux","capacity":16,"lat":45.766893,"lon":4.858922,"name":"6001 - GARE DES BROTTEAUX","station_id":"6001"},{"address":"","capacity":40,"lat":45.717001,"lon":4.814072,"name":"20001 - OULLINS - GARE","station_id":"20001"},{"address":"2 AV. DU BEL AIR (VILLEURBANNE)","capacity":20,"lat":45.757931,"lon":4.910776,"name":"10114 - BEL AIR / LES BROSSES","station_id":"10114"},{"address":"","capacity":20,"lat":45.782631,"lon":4.825576,"name":"4008 - CLOS SAVARON","station_id":"4008"},{"address":"64 BVD EUGENE REGUILLON (VILLEURBANNE)","capacity":15,"lat":45.761532,"lon":4.895763,"name":"10071 - LYCÉE MARIE CURIE","station_id":"10071"},{"address":"Bvd 11 Nov./prox. arret tram Condorcet","capacity":23,"lat":45.779062,"lon":4.866874,"name":"10038 - CONDORCET","station_id":"10038"},{"address":"Rue du Chariot d'Or","capacity":12,"lat":45.77762,"lon":4.83453,"name":"4005 - PLACE BERTONE","station_id":"4005"},{"address":"Avenue Antoine Saint Exupery","capacity":15,"lat":45.758874,"lon":4.878683,"name":"10060 - SAINT EXUPÉRY","station_id":"10060"},{"address":"42 Rue de Gerland 69007 Lyon","capacity":20,"lat":45.739827,"lon":4.840308,"name":"7031 - JAURÈS / GERLAND","station_id":"7031"},{"address":"AVENUE DU PLATEAU","capacity":12,"lat":45.783698,"lon":4.794485,"name":"9050 - ALLEE DE L'EUROPE","station_id":"9050"},{"address":"Face au 115 rue Pierre Baratin","capacity":12,"lat":45.760603,"lon":4.900702,"name":"10087 - BARATIN","station_id":"10087"},{"address":"Avenue Birmingham, sortie tunnel mode doux côté Saöne - 69000 Lyon","capacity":20,"lat":45.774632,"lon":4.813425,"name":"4026 - BIRMINGHAM","station_id":"4026"},{"address":"1 PLACE KIMMERLING (VILLEURBANNE)","capacity":16,"lat":45.752923,"lon":4.898891,"name":"10041 - KIMMERLING","station_id":"10041"},{"address":"Parvis du musée des confluences","capacity":20,"lat":45.733388,"lon":4.818954,"name":"2020 - MUSÉE DES CONFLUENCES","station_id":"2020"},{"address":"","capacity":18,"lat":45.708123,"lon":4.861905,"name":"17003 - ST FONS - THEATRE","station_id":"17003"},{"address":"","capacity":22,"lat":45.770392,"lon":4.814254,"name":"4001 - CONSERVATOIRE BIS","station_id":"4001"},{"address":"RUE DE LA FEYSSINE (VILLEURBANNE)","capacity":20,"lat":45.782994,"lon":4.890614,"name":"10043 - SALENGRO / FEYSSINE","station_id":"10043"},{"address":"Place de Trion","capacity":16,"lat":45.757916,"lon":4.81317,"name":"5007 - PLACE DE TRION","station_id":"5007"},{"address":"Angle rue Garibaldi","capacity":32,"lat":45.760779,"lon":4.85276,"name":"3015 - SERVIENT / GARIBALDI","station_id":"3015"},{"address":"Rue des Cuirassiers Lyon 3","capacity":34,"lat":45.7589457457871,"lon":4.85624511710564,"name":"3010 - PART-DIEU / CUIRASSIERS (FAR)","station_id":"3010"},{"address":"Rue Paul Cazeneuve - Angle du boulevard des Etats-Unis","capacity":19,"lat":45.734027,"lon":4.862906,"name":"8037 - CAZENEUVE","station_id":"8037"},{"address":"2 Rue Crépet 69007 Lyon","capacity":20,"lat":45.740279,"lon":4.832061,"name":"7018 - LYCEE LOUISE LABE","station_id":"7018"},{"address":"Côté est de la place","capacity":27,"lat":45.760698,"lon":4.836279,"name":"2015 - RÉPUBLIQUE / STELLA","station_id":"2015"},{"address":"Avenue du 11 Nov./angle av Gaston Berger","capacity":35,"lat":45.779066,"lon":4.871581,"name":"10056 - 11 NOVEMBRE / GASTON BERGER","station_id":"10056"},{"address":"Angle Gambetta","capacity":38,"lat":45.752967,"lon":4.850271,"name":"3029 - PLACE ARISTIDE BRIAND","station_id":"3029"},{"address":"Cours Emile Zola/Angle cours de la République","capacity":17,"lat":45.7708541,"lon":4.8726116,"name":"10061 - RÉPUBLIQUE","station_id":"10061"},{"address":"Angle rue de Belfort","capacity":17,"lat":45.779731,"lon":4.834708,"name":"4003 - PLACE COMMANDANT  ARNAUD","station_id":"4003"},{"address":"96 RUE CHEVREUL","capacity":17,"lat":45.74541,"lon":4.847843,"name":"7064 - CROUS","station_id":"7064"},{"address":"Angle Bvd de la Croix-Rousse","capacity":17,"lat":45.776002,"lon":4.829628,"name":"4017 - PLACE DES TAPIS","station_id":"4017"},{"address":"","capacity":20,"lat":45.876622,"lon":4.838578,"name":"34001 - NEUVILLE - QUAI PASTEUR","station_id":"34001"},{"address":"","capacity":28,"lat":45.755068,"lon":4.871457,"name":"3068 - FAURE / MEYNIS","station_id":"3068"},{"address":"33 RUE MONCEY","capacity":28,"lat":45.757578,"lon":4.846117,"name":"3082 - SAXE / MONCEY","station_id":"3082"},{"address":"Rue des Charmettes/Angle Cours Emile Zola","capacity":23,"lat":45.770705,"lon":4.867201,"name":"10046 - CHARMETTES/ZOLA","station_id":"10046"},{"address":"Angle rue de St Cloud","capacity":28,"lat":45.730083,"lon":4.82781,"name":"7046 - PLACE DE L'ECOLE","station_id":"7046"},{"address":"1 RUE DE L'ANTIQUAILLE","capacity":12,"lat":45.758333,"lon":4.821075,"name":"5050 - THEATRE ROMAIN","station_id":"5050"},{"address":"Quai Claude Bernard","capacity":39,"lat":45.751404,"lon":4.836395,"name":"7002 - UNIVERSITÉS LYON III / LYON II","station_id":"7002"},{"address":"A côté du stand de fleurs","capacity":32,"lat":45.743396,"lon":4.87897,"name":"3007 - PLACE D'ARSONVAL","station_id":"3007"},{"address":"","capacity":23,"lat":45.762876,"lon":4.862249,"name":"3006 - VILLETTE / SAINT-ANTOINE","station_id":"3006"},{"address":"Angle Cours Vitton","capacity":27,"lat":45.769654,"lon":4.852366,"name":"6007 - MASSÉNA","station_id":"6007"},{"address":"","capacity":20,"lat":45.77291,"lon":4.837315,"name":"1037 - CHAZETTE LASSAGNE","station_id":"1037"},{"address":"373 AV. ANDREI SAKHAROV","capacity":12,"lat":45.786546,"lon":4.797107,"name":"9051 - ANDREI SAKHAROV","station_id":"9051"},{"address":"246 RUE MARCEL MERIEUX","capacity":16,"lat":45.7291359373026,"lon":4.8301170098658,"name":"7012 - MERIEUX / PAVILLONS","station_id":"7012"},{"address":"27–33 Rue Alexander Fleming 69007 Lyon","capacity":25,"lat":45.727951,"lon":4.823563,"name":"7049 - CITÉ SCOLAIRE INTERNATIONALE","station_id":"7049"},{"address":"Devant le lycée","capacity":20,"lat":45.765811,"lon":4.844767,"name":"6005 - PLACE EDGAR QUINET","station_id":"6005"},{"address":"ave G. Berger","capacity":30,"lat":45.781008,"lon":4.871219,"name":"10102 - DOUA / GASTON BERGER","station_id":"10102"},{"address":"Niveau rue de Sèze","capacity":14,"lat":45.766821,"lon":4.841095,"name":"6023 - QUAI SARRAIL","station_id":"6023"},{"address":"Sur le quai devant l'entrée de la piscine","capacity":31,"lat":45.753705,"lon":4.838283,"name":"7034 - PISCINE DU RHÔNE","station_id":"7034"},{"address":"Rue Chenavard - Côté place des Terreaux","capacity":18,"lat":45.766763,"lon":4.832942,"name":"1020 - TERREAUX / CHENAVARD","station_id":"1020"},{"address":"Angle Rue Rollet/Blanqui","capacity":15,"lat":45.764812,"lon":4.884311,"name":"10064 - 4 AOÛT 1789","station_id":"10064"},{"address":"","capacity":18,"lat":45.736219,"lon":4.879855,"name":"8050 - BATAILLE / KRÜGER","station_id":"8050"},{"address":"","capacity":18,"lat":45.757936,"lon":4.921156,"name":"10015 - POUDRETTE / MUSSET","station_id":"10015"},{"address":"Rue Pasteur - Angle avenue Berthelot","capacity":19,"lat":45.747358,"lon":4.836009,"name":"7010 - CENTRE BERTHELOT","station_id":"7010"},{"address":"","capacity":12,"lat":45.805207,"lon":4.88477,"name":"30001 - RILLIEUX - CANELLAS","station_id":"30001"},{"address":"","capacity":22,"lat":45.729714,"lon":4.854338,"name":"8020 - MOULIN A VENT","station_id":"8020"},{"address":"43 BVD DU 11 NOVEMBRE 1918 (VILLEURBANNE)","capacity":34,"lat":45.779429,"lon":4.873992,"name":"10101 - EINSTEIN / 11 NOVEMBRE 1918","station_id":"10101"},{"address":"2 RUE CLAUDE BERNARD (CALUIRE ET CUIRE)","capacity":16,"lat":45.785796,"lon":4.833733,"name":"11001 - CALUIRE - GARE DE CUIRE","station_id":"11001"},{"address":"16 Impasse du Pré Gaudry 69007 Lyon","capacity":30,"lat":45.743975,"lon":4.841463,"name":"7022 - JAURÈS / LAGRANGE","station_id":"7022"},{"address":"135 COURS DOCTEUR LONG","capacity":16,"lat":45.75254,"lon":4.894272,"name":"3102 - DOCTEUR LONG / CAILLE","station_id":"3102"},{"address":"","capacity":25,"lat":45.719746,"lon":4.888457,"name":"16004 - VENISSIEUX PARILLY","station_id":"16004"},{"address":"COURS EMILE ZOLA (VILLEURBANNE)","capacity":19,"lat":45.76611,"lon":4.898539,"name":"10088 - 4 AOÛT 1789 / PRESSENSÉ","station_id":"10088"},{"address":"Allée Pierre de Coubertin","capacity":26,"lat":45.724352,"lon":4.826821,"name":"7020 - PARC DE GERLAND","station_id":"7020"},{"address":"sur la place Croix Luizet","capacity":22,"lat":45.780679,"lon":4.88356,"name":"10031 - CROIX LUIZET","station_id":"10031"},{"address":"192 AV. BARTHELEMY BUYER","capacity":18,"lat":45.763906,"lon":4.792643,"name":"5054 - CHAMPVERT","station_id":"5054"},{"address":"","capacity":20,"lat":45.729454,"lon":4.844228,"name":"7025 - LACOUR / ARTILLERIE","station_id":"7025"},{"address":"Place Jean Ambre","capacity":20,"lat":45.781574,"lon":4.832866,"name":"4011 - PLACE JOANNÈS AMBRE","station_id":"4011"},{"address":"Angle rue Serlin - Angle place de la comédie","capacity":41,"lat":45.767611,"lon":4.836619,"name":"1002 - OPÉRA","station_id":"1002"},{"address":"","capacity":25,"lat":45.71532,"lon":4.878337,"name":"16003 - VÉNISSIEUX - JOLIOT CURIE / SEMBAT","station_id":"16003"},{"address":"Quai Arloing, Côté Saône","capacity":18,"lat":45.773815,"lon":4.809566,"name":"9032 - PLACE DU PORT MOUTON","station_id":"9032"},{"address":"","capacity":30,"lat":45.72284,"lon":4.915219,"name":"14005 - BRON - UNIVERSITE","station_id":"14005"},{"address":"49 COURS ARISTIDE BRIAND (CALUIRE)","capacity":20,"lat":45.785465,"lon":4.847838,"name":"11002 - CALUIRE - SAINT-CLAIR","station_id":"11002"},{"address":"Face rue Massena, entrée centre commercial","capacity":30,"lat":45.762974,"lon":4.855071,"name":"3003 - PART-DIEU / DERUELLE","station_id":"3003"},{"address":"Prox. métro Valmy","capacity":27,"lat":45.774241,"lon":4.805676,"name":"9002 - MAIRIE DU 9E","station_id":"9002"},{"address":"","capacity":16,"lat":45.760526,"lon":4.905877,"name":"10116 - BLUM / FAYS","station_id":"10116"},{"address":"Rue Professeur Bouvier/Angle rue du 8 mai 1945","capacity":16,"lat":45.779487,"lon":4.891692,"name":"10039 - BOUVIER","station_id":"10039"},{"address":"Boulevard des Belges - Angle rue Duquesne","capacity":15,"lat":45.773304,"lon":4.852001,"name":"6006 - BOULEVARD DES BELGES","station_id":"6006"},{"address":"","capacity":20,"lat":45.786262,"lon":4.926788,"name":"12005 - VAULX - VILLAGE","station_id":"12005"},{"address":"Avenue Albert Einstein au niveau du virage","capacity":55,"lat":45.782222,"lon":4.876951,"name":"10002 - INSA","station_id":"10002"},{"address":"Rue de la Madeleine - Angle rue St Lazarre","capacity":15,"lat":45.748925,"lon":4.847714,"name":"7016 - PLACE SAINT LOUIS","station_id":"7016"},{"address":"Place Sainte Irénée","capacity":20,"lat":45.754978,"lon":4.812427,"name":"5008 - SAINTE-IRÉNÉE","station_id":"5008"},{"address":"","capacity":24,"lat":45.830874,"lon":4.846988,"name":"27001 - COLLONGES - GARE","station_id":"27001"},{"address":"","capacity":15,"lat":45.870877,"lon":4.839595,"name":"34002 - NEUVILLE - STADE","station_id":"34002"},{"address":"","capacity":30,"lat":45.778178,"lon":4.920544,"name":"12004 - VAULX - HÔTEL DE VILLE","station_id":"12004"},{"address":"RUE GEORGES MELIES (VILLEURBANNE)","capacity":24,"lat":45.776715,"lon":4.859573,"name":"10054 - STALINGRAD / MELIÈS","station_id":"10054"},{"address":"Rue Herriot - Devant Musée des Beaux Arts","capacity":11,"lat":45.767062,"lon":4.834294,"name":"1021 - TERREAUX / BEAUX ARTS","station_id":"1021"},{"address":"Angle rue Casimir Périer","capacity":37,"lat":45.742617,"lon":4.820464,"name":"2007 - PATINOIRE CHARLEMAGNE","station_id":"2007"},{"address":"Devant la mairie du 8e","capacity":21,"lat":45.735158,"lon":4.872803,"name":"8004 - MAIRIE DU 8E","station_id":"8004"},{"address":"Entre rue de Bonnel et rue Rabelais","capacity":19,"lat":45.762023,"lon":4.841053,"name":"3044 - QUAI AUGAGNEUR","station_id":"3044"},{"address":"","capacity":18,"lat":45.874978,"lon":4.833024,"name":"33001 - ALBIGNY - GARE","station_id":"33001"},{"address":"","capacity":25,"lat":45.708509,"lon":4.886939,"name":"16005 - VENISSIEUX - GARE","station_id":"16005"},{"address":"","capacity":30,"lat":45.764489,"lon":4.877894,"name":"10019 - 4 AOUT / RACINE","station_id":"10019"},{"address":"","capacity":16,"lat":45.763652,"lon":4.873158,"name":"10025 - TOTEM","station_id":"10025"},{"address":"Angle avenue Berthelot","capacity":13,"lat":45.738301,"lon":4.862727,"name":"8034 - BERTHELOT / VILLON","station_id":"8034"},{"address":"143 RUE PAUL BERT","capacity":28,"lat":45.757268,"lon":4.855193,"name":"3084 - DESAIX","station_id":"3084"},{"address":"Angle quai Romain Rolland","capacity":14,"lat":45.763383,"lon":4.829024,"name":"5026 - RUE DE LA BALEINE","station_id":"5026"},{"address":"Devant le bâtiment du Klesia","capacity":20,"lat":45.757147,"lon":4.858975,"name":"3038 - VIVIER MERLE / PAUL BERT EST","station_id":"3038"},{"address":"","capacity":25,"lat":45.787941,"lon":4.853035,"name":"11005 - CALUIRE - PASSERELLE DE LA PAIX","station_id":"11005"},{"address":"Intersection Bd Vivier Merle - Rue Eugène Deruelle Lyon 3","capacity":28,"lat":45.76326,"lon":4.85749,"name":"3019 - PART-DIEU / DERUELLE","station_id":"3019"},{"address":"4 PLACE LOUISE","capacity":16,"lat":45.75118,"lon":4.884795,"name":"3079 - PLACE LOUISE","station_id":"3079"},{"address":"Entre rue de Brest et rue Mercière","capacity":10,"lat":45.762054,"lon":4.833194,"name":"2025 - MERCIÈRE / FERRANDIÈRE","station_id":"2025"},{"address":"Place Jean Macé - Face à la mairie","capacity":30,"lat":45.74656,"lon":4.842265,"name":"7004 - MAIRIE DU 7E","station_id":"7004"},{"address":"49 RUE JOLIOT CURIE","capacity":20,"lat":45.754654,"lon":4.78821,"name":"5031- MÉNIVAL / JOLIOT CURIE","station_id":"5031"},{"address":"86 RUE DE LA CHARITE","capacity":17,"lat":45.749257,"lon":4.82984,"name":"2039 - CHARITÉ / RÉCAMIER","station_id":"2039"},{"address":"","capacity":15,"lat":45.757092,"lon":4.92731,"name":"12003 - VAULX - BIBLIOTHEQUE","station_id":"12003"},{"address":"","capacity":12,"lat":45.799742,"lon":4.819607,"name":"25001 - ST CYR","station_id":"25001"},{"address":"55 QUAI PIERRE SCIZE","capacity":21,"lat":45.766576,"lon":4.820214,"name":"5041 - L'HOMME DE LA ROCHE","station_id":"5041"},{"address":"angle quai de Bondy","capacity":16,"lat":45.764695,"lon":4.828969,"name":"5009 - PLACE ENNEMOND FOUSSERET","station_id":"5009"},{"address":"","capacity":30,"lat":45.754727,"lon":4.85346,"name":"3034 - GARIBALDI / PENSIONNAT","station_id":"3034"},{"address":"Angle rue Nungesser et Coli","capacity":16,"lat":45.741425,"lon":4.879733,"name":"8030 - LAËNNEC","station_id":"8030"},{"address":"104 RUE DU COMMANDANT CHARCOT","capacity":15,"lat":45.749627,"lon":4.795546,"name":"5036 - LA SALETTE","station_id":"5036"},{"address":"Devant entrée de la fac","capacity":16,"lat":45.738135,"lon":4.886885,"name":"8003 - CLAUDE BERNARD LYON I","station_id":"8003"},{"address":"61 RUE DU DAUPHINE","capacity":17,"lat":45.752779,"lon":4.868748,"name":"3100 - SISLEY / DAUPHINE","station_id":"3100"},{"address":"","capacity":20,"lat":45.835406,"lon":4.8457,"name":"28002 - FONTAINES S/S - GAMBETTA","station_id":"28002"},{"address":"Avenue Aristide Briand, en face de la mairie","capacity":26,"lat":45.766861,"lon":4.880059,"name":"10027 - MAIRIE DE VILLEURBANNE","station_id":"10027"},{"address":"Rue de la Bourse - Long du Collège-Lycée Ampère","capacity":26,"lat":45.765789,"lon":4.836906,"name":"1012 - AMPÈRE / BOURSE","station_id":"1012"},{"address":"Boulevard Stalingrad/angle rue Charlie Chaplin","capacity":21,"lat":45.77435,"lon":4.859157,"name":"10036 - STALINGRAD","station_id":"10036"},{"address":"","capacity":50,"lat":45.757571,"lon":4.837183,"name":"2018 - HOTEL DIEU / PONT DE LA GUILLOTIERE","station_id":"2018"},{"address":"Angle Poulaillerie / République","capacity":32,"lat":45.764079,"lon":4.835554,"name":"2030 - RÉPUBLIQUE / POULAILLERIE","station_id":"2030"},{"address":"303 ROUTE DE VIENNE (VENISSIEUX)","capacity":20,"lat":45.724172,"lon":4.854165,"name":"8051 - HÔPITAL SAINT-JEAN DE DIEU","station_id":"8051"},{"address":"217b–221 Avenue Jean Jaurès 69007 Lyon","capacity":34,"lat":45.734712,"lon":4.835486,"name":"7057 - JAURES / BOLLIER","station_id":"7057"},{"address":"","capacity":27,"lat":45.712362,"lon":4.855202,"name":"17001 - ST FONS - ARSENAL","station_id":"17001"},{"address":"Rue de l'Epargne","capacity":25,"lat":45.745939,"lon":4.851214,"name":"7052 - PARC BLANDAN","station_id":"7052"},{"address":"Place Gabriel Péri","capacity":20,"lat":45.754875,"lon":4.843627,"name":"7001 - PLACE GABRIEL PÉRI","station_id":"7001"},{"address":"Allée A. Lignon","capacity":23,"lat":45.783885,"lon":4.852156,"name":"6036 - MUSÉE D'ART CONTEMPORAIN","station_id":"6036"},{"address":"Avenue Debourg - Angle avenue Jean Jaurès","capacity":20,"lat":45.73182,"lon":4.833996,"name":"7005 - DEBOURG","station_id":"7005"},{"address":"2 AV. DES FRERES LUMIERE","capacity":16,"lat":45.747091,"lon":4.860196,"name":"8052 - CLINIQUE MONPLAISIR","station_id":"8052"},{"address":"Angle rue Boileau","capacity":23,"lat":45.768395,"lon":4.849402,"name":"6011- MAIRIE DU 6E","station_id":"6011"},{"address":"64 AV. JEAN JAURES","capacity":20,"lat":45.748545,"lon":4.843249,"name":"7061 - JAURES / UNIVERSITE","station_id":"7061"},{"address":"103 RUE PIERRE VOYANT (VILLEURBANNE)","capacity":20,"lat":45.764961,"lon":4.901018,"name":"10013 - CUSSET","station_id":"10013"},{"address":"101 cours Charlemagne Lyon 2 direction centre ville. Devant l'hôtel de Région","capacity":32,"lat":45.740675,"lon":4.819284,"name":"2005 - CONFLUENCE HÔTEL DE RÉGION","station_id":"2005"},{"address":"17 RUE PIZAY","capacity":22,"lat":45.767165,"lon":4.836334,"name":"1032 - PIZAY","station_id":"1032"},{"address":"Angle rue du fort Ste Irénée / Charcot","capacity":32,"lat":45.755054,"lon":4.807811,"name":"5030 - CHARCOT / RÉSIDENCE UNIVERSITAIRE","station_id":"5030"},{"address":"97 ROUTE DE VIENNE","capacity":20,"lat":45.738617,"lon":4.852412,"name":"8039 - PIERRE DELORE","station_id":"8039"},{"address":"51 RUE DOMER","capacity":19,"lat":45.747735,"lon":4.85162,"name":"7062 - GARIBALDI / DOMER","station_id":"7062"},{"address":"PLACE BELLECOUR Côté rue Lintier","capacity":40,"lat":45.758149,"lon":4.830428,"name":"2002 - BELLECOUR / ST EXUPÉRY","station_id":"2002"},{"address":"4 BVD EUGENE DERUELLE","capacity":20,"lat":45.762768,"lon":4.852563,"name":"3087 - PART-DIEU / GARIBALDI","station_id":"3087"},{"address":"Face entrée de la gare","capacity":22,"lat":45.779786,"lon":4.804666,"name":"9004 - GARE DE VAISE","station_id":"9004"},{"address":"Face au cours Albert Thomas","capacity":20,"lat":45.745296,"lon":4.871604,"name":"8002- PLACE AMBROISE COURTOIS","station_id":"8002"},{"address":"Av Piaton / angle Condorcet","capacity":20,"lat":45.774204,"lon":4.867512,"name":"10007 - PIATON / CONDORCET","station_id":"10007"},{"address":"49 RUE SGT BERTHET","capacity":40,"lat":45.767484,"lon":4.805626,"name":"9033 - GORGE DE LOUP","station_id":"9033"},{"address":"Devant le n°63 rue de Trion","capacity":23,"lat":45.757319,"lon":4.815064,"name":"5001 - PLACE VARILLON (FUNICULAIRE ST JUST)","station_id":"5001"},{"address":"Angle rue Paul Bert","capacity":30,"lat":45.756596,"lon":4.848442,"name":"3018 - CRÉQUI / VOLTAIRE","station_id":"3018"}]},"last_updated":1663786464,"ttl":60,"version":"1.1"}